[
    {
        "name": "National N-Diploma (N4-N6): Educare (N4-N6)",
        "faculty": "N/A",
        "duration": "N/A",
        "location": "On Campus",
        "institution": "Bolland College",
        "region": " Western Cape"
    },
    {
        "name": "National Certificate (Vocational): Safety in Society (Level 2-4)",
        "faculty": "N/A",
        "duration": "N/A",
        "location": "On Campus",
        "institution": "Bolland College",
        "region": " Western Cape"
    },
    {
        "name": "National Certificate (Vocational): Engineering & Related Design (Level 2-4)",
        "faculty": "N/A",
        "duration": "N/A",
        "location": "On Campus",
        "institution": "Bolland College",
        "region": " Western Cape"
    },
    {
        "name": "National Certificate (Vocational): Civil Engineering & Building Construction (Level 2-4)",
        "faculty": "N/A",
        "duration": "N/A",
        "location": "On Campus",
        "institution": "Bolland College",
        "region": " Western Cape"
    },
    {
        "name": "NTC: Construction Engineering Studies (Plumbing) (N1-N3)",
        "faculty": "N/A",
        "duration": "N/A",
        "location": "On Campus",
        "institution": "Bolland College",
        "region": " Western Cape"
    },
    {
        "name": "National N-Diploma (N4-N6): Electrical Engineering (N4-N6)",
        "faculty": "N/A",
        "duration": "N/A",
        "location": "On Campus",
        "institution": "Bolland College",
        "region": " Western Cape"
    },
    {
        "name": "National Certificate (Vocational): Electrical Infrastructure Construction (Level 2-4)",
        "faculty": "N/A",
        "duration": "N/A",
        "location": "On Campus",
        "institution": "Bolland College",
        "region": " Western Cape"
    },
    {
        "name": "NTC: Electrical Engineering Studies (N1-N3)",
        "faculty": "N/A",
        "duration": "N/A",
        "location": "On Campus",
        "institution": "Bolland College",
        "region": " Western Cape"
    },
    {
        "name": "National N-Diploma (N4-N6): Human Resource Management ",
        "faculty": "N/A",
        "duration": "N/A",
        "location": "On Campus",
        "institution": "Bolland College",
        "region": " Western Cape"
    },
    {
        "name": "National N-Diploma (N4-N6): Financial Management",
        "faculty": "N/A",
        "duration": "N/A",
        "location": "On Campus",
        "institution": "Bolland College",
        "region": " Western Cape"
    },
    {
        "name": "National N-Diploma (N4-N6): Marketing Management",
        "faculty": "N/A",
        "duration": "N/A",
        "location": "On Campus",
        "institution": "Bolland College",
        "region": " Western Cape"
    },
    {
        "name": "National N-Diploma (N4-N6): Business Management",
        "faculty": "N/A",
        "duration": "N/A",
        "location": "On Campus",
        "institution": "Bolland College",
        "region": " Western Cape"
    },
    {
        "name": "National N-Diploma (N4-N6): Public Management",
        "faculty": "N/A",
        "duration": "N/A",
        "location": "On Campus",
        "institution": "Bolland College",
        "region": " Western Cape"
    },
    {
        "name": "National Certificate (Vocational): Transport & Logistics (Level 2-4)",
        "faculty": "N/A",
        "duration": "N/A",
        "location": "On Campus",
        "institution": "Bolland College",
        "region": " Western Cape"
    },
    {
        "name": "National N-Diploma (N4-N6): Tourism Management",
        "faculty": "N/A",
        "duration": "N/A",
        "location": "On Campus",
        "institution": "Bolland College",
        "region": " Western Cape"
    },
    {
        "name": "National N-Diploma (N4-N6): Hospitality and Catering Services",
        "faculty": "N/A",
        "duration": "N/A",
        "location": "On Campus",
        "institution": "Bolland College",
        "region": " Western Cape"
    },
    {
        "name": "National Certificate (Vocational): Tourism (Level 2-4)",
        "faculty": "N/A",
        "duration": "N/A",
        "location": "On Campus",
        "institution": "Bolland College",
        "region": " Western Cape"
    },
    {
        "name": "National N-Diploma (N4-N6): Management Assistant",
        "faculty": "N/A",
        "duration": "N/A",
        "location": "On Campus",
        "institution": "Bolland College",
        "region": " Western Cape"
    },
    {
        "name": "National N-Diploma (N4-N6): Medical Secretary",
        "faculty": "N/A",
        "duration": "N/A",
        "location": "On Campus",
        "institution": "Bolland College",
        "region": " Western Cape"
    },
    {
        "name": "National Certificate (Vocational): Office Administration (Level 2-4)",
        "faculty": "N/A",
        "duration": "N/A",
        "location": "On Campus",
        "institution": "Bolland College",
        "region": " Western Cape"
    },
    {
        "name": "National N-Diploma (N4-N6): Farming Management",
        "faculty": "N/A",
        "duration": "N/A",
        "location": "On Campus",
        "institution": "Bolland College",
        "region": " Western Cape"
    },
    {
        "name": "National Certificate (Vocational): Information Technology & Computer Science (Level 2-4)",
        "faculty": "N/A",
        "duration": "N/A",
        "location": "On Campus",
        "institution": "Bolland College",
        "region": " Western Cape"
    },
    {
        "name": "",
        "faculty": "N/A",
        "duration": "N/A",
        "location": "On Campus",
        "institution": "Bolland College",
        "region": " Western Cape"
    },
    {
        "name": "National Certificate (Vocational): Finance, Economics And Accounting",
        "faculty": "N/A",
        "duration": "N/A",
        "location": "On Campus",
        "institution": "Buffalo City College",
        "region": " Eastern Cape"
    },
    {
        "name": "National Certificate (Vocational): School Of Business",
        "faculty": "N/A",
        "duration": "N/A",
        "location": "On Campus",
        "institution": "Buffalo City College",
        "region": " Eastern Cape"
    },
    {
        "name": "National Certificate (Vocational): IT And Computer Science",
        "faculty": "N/A",
        "duration": "N/A",
        "location": "On Campus",
        "institution": "Buffalo City College",
        "region": " Eastern Cape"
    },
    {
        "name": "National Certificate (Vocational): Mechatronics",
        "faculty": "N/A",
        "duration": "N/A",
        "location": "On Campus",
        "institution": "Buffalo City College",
        "region": " Eastern Cape"
    },
    {
        "name": "National Certificate (Vocational): Office Administration",
        "faculty": "N/A",
        "duration": "N/A",
        "location": "On Campus",
        "institution": "Buffalo City College",
        "region": " Eastern Cape"
    },
    {
        "name": "National Certificate (Vocational): Tourism",
        "faculty": "N/A",
        "duration": "N/A",
        "location": "On Campus",
        "institution": "Buffalo City College",
        "region": " Eastern Cape"
    },
    {
        "name": "National Certificate (Vocational): Safety In Society",
        "faculty": "N/A",
        "duration": "N/A",
        "location": "On Campus",
        "institution": "Buffalo City College",
        "region": " Eastern Cape"
    },
    {
        "name": "National Certificate (Vocational): School Of Engineering",
        "faculty": "N/A",
        "duration": "N/A",
        "location": "On Campus",
        "institution": "Buffalo City College",
        "region": " Eastern Cape"
    },
    {
        "name": "National Certificate (Vocational): Electrical Infrastructure Construction",
        "faculty": "N/A",
        "duration": "N/A",
        "location": "On Campus",
        "institution": "Buffalo City College",
        "region": " Eastern Cape"
    },
    {
        "name": "National N-Diploma (N1-N6): Business Studies",
        "faculty": "N/A",
        "duration": "N/A",
        "location": "On Campus",
        "institution": "Buffalo City College",
        "region": " Eastern Cape"
    },
    {
        "name": "National N-Diploma (N1-N6): Business Management",
        "faculty": "N/A",
        "duration": "N/A",
        "location": "On Campus",
        "institution": "Buffalo City College",
        "region": " Eastern Cape"
    },
    {
        "name": "National N-Diploma (N1-N6): Financial Management",
        "faculty": "N/A",
        "duration": "N/A",
        "location": "On Campus",
        "institution": "Buffalo City College",
        "region": " Eastern Cape"
    },
    {
        "name": "National N-Diploma (N1-N6): Human Resources",
        "faculty": "N/A",
        "duration": "N/A",
        "location": "On Campus",
        "institution": "Buffalo City College",
        "region": " Eastern Cape"
    },
    {
        "name": "National N-Diploma (N1-N6): Educare",
        "faculty": "N/A",
        "duration": "N/A",
        "location": "On Campus",
        "institution": "Buffalo City College",
        "region": " Eastern Cape"
    },
    {
        "name": "National N-Diploma (N1-N6): Engineering",
        "faculty": "N/A",
        "duration": "N/A",
        "location": "On Campus",
        "institution": "Buffalo City College",
        "region": " Eastern Cape"
    },
    {
        "name": "National N-Diploma (N1-N6): Business Management",
        "faculty": "N/A",
        "duration": "N/A",
        "location": "On Campus",
        "institution": "Buffalo City College",
        "region": " Eastern Cape"
    },
    {
        "name": "National N-Diploma (N1-N6): Financial Management",
        "faculty": "N/A",
        "duration": "N/A",
        "location": "On Campus",
        "institution": "Buffalo City College",
        "region": " Eastern Cape"
    },
    {
        "name": "National N-Diploma (N1-N6): Human Resources Management",
        "faculty": "N/A",
        "duration": "N/A",
        "location": "On Campus",
        "institution": "Buffalo City College",
        "region": " Eastern Cape"
    },
    {
        "name": "National N-Diploma (N1-N6): Management Assistant",
        "faculty": "N/A",
        "duration": "N/A",
        "location": "On Campus",
        "institution": "Buffalo City College",
        "region": " Eastern Cape"
    },
    {
        "name": "National N-Diploma (N1-N6): Public Management",
        "faculty": "N/A",
        "duration": "N/A",
        "location": "On Campus",
        "institution": "Buffalo City College",
        "region": " Eastern Cape"
    },
    {
        "name": "National N-Diploma (N1-N6): Engineering",
        "faculty": "N/A",
        "duration": "N/A",
        "location": "On Campus",
        "institution": "Buffalo City College",
        "region": " Eastern Cape"
    },
    {
        "name": "Occupational Learning: Auto-Mechatronics programme",
        "faculty": "N/A",
        "duration": "N/A",
        "location": "On Campus",
        "institution": "Buffalo City College",
        "region": " Eastern Cape"
    },
    {
        "name": "Diploma: Entrepreneurial and Small Business Operations",
        "faculty": "N/A",
        "duration": "N/A",
        "location": "On Campus",
        "institution": "Monash",
        "region": " National"
    },
    {
        "name": "Professional Certificate: Accountancy",
        "faculty": "N/A",
        "duration": "N/A",
        "location": "On Campus",
        "institution": "Monash",
        "region": " National"
    },
    {
        "name": "Higher Certificate: Business Principles and Practice",
        "faculty": "N/A",
        "duration": "N/A",
        "location": "On Campus",
        "institution": "Monash",
        "region": " National"
    },
    {
        "name": "Bachelors: Computer and Information Sciences",
        "faculty": "N/A",
        "duration": "N/A",
        "location": "On Campus",
        "institution": "Monash",
        "region": " National"
    },
    {
        "name": "Bachelors: Social Science",
        "faculty": "N/A",
        "duration": "N/A",
        "location": "On Campus",
        "institution": "Monash",
        "region": " National"
    },
    {
        "name": "Bachelors: Public Health",
        "faculty": "N/A",
        "duration": "N/A",
        "location": "On Campus",
        "institution": "Monash",
        "region": " National"
    },
    {
        "name": "Bachelors: Commerce: Law",
        "faculty": "N/A",
        "duration": "N/A",
        "location": "On Campus",
        "institution": "Monash",
        "region": " National"
    },
    {
        "name": "Bachelors: Engineering: Electrical and Electronic Engineering",
        "faculty": "N/A",
        "duration": "N/A",
        "location": "On Campus",
        "institution": "Monash",
        "region": " National"
    },
    {
        "name": "Bachelors: Engineering: Mechanical Engineering",
        "faculty": "N/A",
        "duration": "N/A",
        "location": "On Campus",
        "institution": "Monash",
        "region": " National"
    },
    {
        "name": "Bachelors: Child and Youth Care",
        "faculty": "N/A",
        "duration": "N/A",
        "location": "On Campus",
        "institution": "Monash",
        "region": " National"
    },
    {
        "name": "Bachelors: Commerce: Human Resource Management",
        "faculty": "N/A",
        "duration": "N/A",
        "location": "On Campus",
        "institution": "Monash",
        "region": " National"
    },
    {
        "name": "Bachelors: Commerce",
        "faculty": "N/A",
        "duration": "N/A",
        "location": "On Campus",
        "institution": "Monash",
        "region": " National"
    },
    {
        "name": "Bachelors: Accounting",
        "faculty": "N/A",
        "duration": "N/A",
        "location": "On Campus",
        "institution": "Monash",
        "region": " National"
    },
    {
        "name": "Bachelors: Laws (LLB)",
        "faculty": "N/A",
        "duration": "N/A",
        "location": "On Campus",
        "institution": "Monash",
        "region": " National"
    },
    {
        "name": "Bachelors: Commerce: Economics",
        "faculty": "N/A",
        "duration": "N/A",
        "location": "On Campus",
        "institution": "Monash",
        "region": " National"
    },
    {
        "name": "Bachelors: Computer and Information Sciences (Honours)",
        "faculty": "N/A",
        "duration": "N/A",
        "location": "On Campus",
        "institution": "Monash",
        "region": " National"
    },
    {
        "name": "Bachelors: Social Science (Honours)",
        "faculty": "N/A",
        "duration": "N/A",
        "location": "On Campus",
        "institution": "Monash",
        "region": " National"
    },
    {
        "name": "Bachelors: Business Science (Honours)",
        "faculty": "N/A",
        "duration": "N/A",
        "location": "On Campus",
        "institution": "Monash",
        "region": " National"
    },
    {
        "name": "Bachelors: Public Health (Honours)",
        "faculty": "N/A",
        "duration": "N/A",
        "location": "On Campus",
        "institution": "Monash",
        "region": " National"
    },
    {
        "name": "Bachelors: Commerce (Honours): Economics",
        "faculty": "N/A",
        "duration": "N/A",
        "location": "On Campus",
        "institution": "Monash",
        "region": " National"
    },
    {
        "name": "Postgraduate Diploma: Water Management",
        "faculty": "N/A",
        "duration": "N/A",
        "location": "On Campus",
        "institution": "Monash",
        "region": " National"
    },
    {
        "name": "Postgraduate Diploma: Accounting",
        "faculty": "N/A",
        "duration": "N/A",
        "location": "On Campus",
        "institution": "Monash",
        "region": " National"
    },
    {
        "name": "Postgraduate Diploma: Public Health",
        "faculty": "N/A",
        "duration": "N/A",
        "location": "On Campus",
        "institution": "Monash",
        "region": " National"
    },
    {
        "name": "Postgraduate Diploma: Corporate Governance",
        "faculty": "N/A",
        "duration": "N/A",
        "location": "On Campus",
        "institution": "Monash",
        "region": " National"
    },
    {
        "name": "Postgraduate Diploma: Business Leadership",
        "faculty": "N/A",
        "duration": "N/A",
        "location": "On Campus",
        "institution": "Monash",
        "region": " National"
    },
    {
        "name": "Postgraduate Diploma: Finance and Accounting",
        "faculty": "N/A",
        "duration": "N/A",
        "location": "On Campus",
        "institution": "Monash",
        "region": " National"
    },
    {
        "name": "Postgraduate Diploma: Internal Auditing",
        "faculty": "N/A",
        "duration": "N/A",
        "location": "On Campus",
        "institution": "Monash",
        "region": " National"
    },
    {
        "name": "Masters: Philosophy: Computer and Information Science",
        "faculty": "N/A",
        "duration": "N/A",
        "location": "On Campus",
        "institution": "Monash",
        "region": " National"
    },
    {
        "name": "Masters: Philosophy: Arts",
        "faculty": "N/A",
        "duration": "N/A",
        "location": "On Campus",
        "institution": "Monash",
        "region": " National"
    },
    {
        "name": "Masters: Philosophy: Integrated Water Management",
        "faculty": "N/A",
        "duration": "N/A",
        "location": "On Campus",
        "institution": "Monash",
        "region": " National"
    },
    {
        "name": "Masters: International Business",
        "faculty": "N/A",
        "duration": "N/A",
        "location": "On Campus",
        "institution": "Monash",
        "region": " National"
    },
    {
        "name": "Masters: Business Administration",
        "faculty": "N/A",
        "duration": "N/A",
        "location": "On Campus",
        "institution": "Monash",
        "region": " National"
    },
    {
        "name": "National Certificate (Vocational): Civil Engineering & Building Construction",
        "faculty": "N/A",
        "duration": "N/A",
        "location": "On Campus",
        "institution": "Nkangala College",
        "region": " Gauteng"
    },
    {
        "name": "National Certificate (Vocational): Electrical Infrastructure Construction",
        "faculty": "N/A",
        "duration": "N/A",
        "location": "On Campus",
        "institution": "Nkangala College",
        "region": " Gauteng"
    },
    {
        "name": "National Certificate (Vocational): Engineering & Related Design",
        "faculty": "N/A",
        "duration": "N/A",
        "location": "On Campus",
        "institution": "Nkangala College",
        "region": " Gauteng"
    },
    {
        "name": "National Certificate (Vocational): Tourism",
        "faculty": "N/A",
        "duration": "N/A",
        "location": "On Campus",
        "institution": "Nkangala College",
        "region": " Gauteng"
    },
    {
        "name": "National Certificate (Vocational): Office Administration",
        "faculty": "N/A",
        "duration": "N/A",
        "location": "On Campus",
        "institution": "Nkangala College",
        "region": " Gauteng"
    },
    {
        "name": "National Certificate (Vocational): Information Technology & Computer Science",
        "faculty": "N/A",
        "duration": "N/A",
        "location": "On Campus",
        "institution": "Nkangala College",
        "region": " Gauteng"
    },
    {
        "name": "National Certificate (Vocational): Hospitality",
        "faculty": "N/A",
        "duration": "N/A",
        "location": "On Campus",
        "institution": "Nkangala College",
        "region": " Gauteng"
    },
    {
        "name": "National Certificate (Vocational): Finance, Economics & Accounting",
        "faculty": "N/A",
        "duration": "N/A",
        "location": "On Campus",
        "institution": "Nkangala College",
        "region": " Gauteng"
    },
    {
        "name": "Nated: Business Management",
        "faculty": "N/A",
        "duration": "N/A",
        "location": "On Campus",
        "institution": "Nkangala College",
        "region": " Gauteng"
    },
    {
        "name": "Nated: Human Resources",
        "faculty": "N/A",
        "duration": "N/A",
        "location": "On Campus",
        "institution": "Nkangala College",
        "region": " Gauteng"
    },
    {
        "name": "Nated: Financial Management",
        "faculty": "N/A",
        "duration": "N/A",
        "location": "On Campus",
        "institution": "Nkangala College",
        "region": " Gauteng"
    },
    {
        "name": "Nated: Management Assistant",
        "faculty": "N/A",
        "duration": "N/A",
        "location": "On Campus",
        "institution": "Nkangala College",
        "region": " Gauteng"
    },
    {
        "name": "Nated: Mechanical Engineering",
        "faculty": "N/A",
        "duration": "N/A",
        "location": "On Campus",
        "institution": "Nkangala College",
        "region": " Gauteng"
    },
    {
        "name": "Nated: Electrical Engineering",
        "faculty": "N/A",
        "duration": "N/A",
        "location": "On Campus",
        "institution": "Nkangala College",
        "region": " Gauteng"
    },
    {
        "name": "Nated: Civil Engineering",
        "faculty": "N/A",
        "duration": "N/A",
        "location": "On Campus",
        "institution": "Nkangala College",
        "region": " Gauteng"
    },
    {
        "name": "short course: Basic Dressmaking Skills",
        "faculty": "N/A",
        "duration": "N/A",
        "location": "On Campus",
        "institution": "Nkangala College",
        "region": " Gauteng"
    },
    {
        "name": "short course: Basic Literacy and Numeracy Skills",
        "faculty": "N/A",
        "duration": "N/A",
        "location": "On Campus",
        "institution": "Nkangala College",
        "region": " Gauteng"
    },
    {
        "name": "short course: Basic End-User Computer Skills",
        "faculty": "N/A",
        "duration": "N/A",
        "location": "On Campus",
        "institution": "Nkangala College",
        "region": " Gauteng"
    },
    {
        "name": "short course: Project Management (NQF) level 2)",
        "faculty": "N/A",
        "duration": "N/A",
        "location": "On Campus",
        "institution": "Nkangala College",
        "region": " Gauteng"
    },
    {
        "name": "",
        "faculty": "N/A",
        "duration": "N/A",
        "location": "On Campus",
        "institution": "Nkangala College",
        "region": " Gauteng"
    },
    {
        "name": "National Certificate (Vocational): Civil Engineering and Building Construction (Level 2-4)",
        "faculty": "N/A",
        "duration": "N/A",
        "location": "On Campus",
        "institution": ""
    },
    {
        "name": "National Certificate (Vocational): Tourism (Level 2-4)",
        "faculty": "N/A",
        "duration": "N/A",
        "location": "On Campus",
        "institution": ""
    },
    {
        "name": "National Certificate (Vocational): Safety in Society (Level 2-4)",
        "faculty": "N/A",
        "duration": "N/A",
        "location": "On Campus",
        "institution": ""
    },
    {
        "name": "National Certificate (Vocational): Primary Health (Level 2-4)",
        "faculty": "N/A",
        "duration": "N/A",
        "location": "On Campus",
        "institution": ""
    },
    {
        "name": "National Certificate (Vocational): Office Administration (Level 2-4)",
        "faculty": "N/A",
        "duration": "N/A",
        "location": "On Campus",
        "institution": ""
    },
    {
        "name": "National Certificate (Vocational): Marketing (Level 2-4)",
        "faculty": "N/A",
        "duration": "N/A",
        "location": "On Campus",
        "institution": ""
    },
    {
        "name": "National Certificate (Vocational): Hospitality (Level 2-4)",
        "faculty": "N/A",
        "duration": "N/A",
        "location": "On Campus",
        "institution": ""
    },
    {
        "name": "National Certificate (Vocational): Finance, Economics and Accounting (Level 2-4)",
        "faculty": "N/A",
        "duration": "N/A",
        "location": "On Campus",
        "institution": ""
    },
    {
        "name": "National Certificate (Vocational): Engineering & Related Design Level 2 – 4",
        "faculty": "N/A",
        "duration": "N/A",
        "location": "On Campus",
        "institution": ""
    },
    {
        "name": "National Certificate (Vocational): Electrical Infrastructure Construction (Level 2-4)",
        "faculty": "N/A",
        "duration": "N/A",
        "location": "On Campus",
        "institution": ""
    },
    {
        "name": "National Introductory Certificate: Business Studies N4",
        "faculty": "N/A",
        "duration": "N/A",
        "location": "On Campus",
        "institution": ""
    },
    {
        "name": "National N-Diploma (N4-N6): Tourism",
        "faculty": "N/A",
        "duration": "N/A",
        "location": "On Campus",
        "institution": ""
    },
    {
        "name": "National N-Diploma (N4-N6): Public Management",
        "faculty": "N/A",
        "duration": "N/A",
        "location": "On Campus",
        "institution": ""
    },
    {
        "name": "National N-Diploma (N4-N6): Marketing Management",
        "faculty": "N/A",
        "duration": "N/A",
        "location": "On Campus",
        "institution": ""
    },
    {
        "name": "National N-Diploma (N4-N6): Management Assistant",
        "faculty": "N/A",
        "duration": "N/A",
        "location": "On Campus",
        "institution": ""
    },
    {
        "name": "National N-Diploma (N4-N6): Human Resource Management",
        "faculty": "N/A",
        "duration": "N/A",
        "location": "On Campus",
        "institution": ""
    },
    {
        "name": "National N-Diploma (N4-N6): Hospitality and Catering Services",
        "faculty": "N/A",
        "duration": "N/A",
        "location": "On Campus",
        "institution": ""
    },
    {
        "name": "National N-Diploma (N4-N6): Financial Management",
        "faculty": "N/A",
        "duration": "N/A",
        "location": "On Campus",
        "institution": ""
    },
    {
        "name": "National N-Diploma (N4-N6): Engineering Studies: Mechanical",
        "faculty": "N/A",
        "duration": "N/A",
        "location": "On Campus",
        "institution": ""
    },
    {
        "name": "National N-Diploma (N1-N3): Engineering Studies: Mechanical",
        "faculty": "N/A",
        "duration": "N/A",
        "location": "On Campus",
        "institution": ""
    },
    {
        "name": "National N-Diploma (N1-N3): Engineering Studies: Electrical (Light Current)",
        "faculty": "N/A",
        "duration": "N/A",
        "location": "On Campus",
        "institution": ""
    },
    {
        "name": "National N-Diploma (N4-N6): Engineering Studies: Electrical (Light Current) Electronics",
        "faculty": "N/A",
        "duration": "N/A",
        "location": "On Campus",
        "institution": ""
    },
    {
        "name": "National N-Diploma (N4-N6): Engineering Studies: Electrical (Heavy Current)",
        "faculty": "N/A",
        "duration": "N/A",
        "location": "On Campus",
        "institution": ""
    },
    {
        "name": "National N-Diploma (N4-N6): Engineering Studies: Building & Civil Construction",
        "faculty": "N/A",
        "duration": "N/A",
        "location": "On Campus",
        "institution": ""
    },
    {
        "name": "National N-Diploma (N1-N3): Engineering Studies: Mechanical",
        "faculty": "N/A",
        "duration": "N/A",
        "location": "On Campus",
        "institution": ""
    },
    {
        "name": "National N-Diploma (N1-N3): Engineering Studies Electrical (Heavy Current)",
        "faculty": "N/A",
        "duration": "N/A",
        "location": "On Campus",
        "institution": ""
    },
    {
        "name": "National N-Diploma (N1-N3): Engineering Studies Building & Civil construction",
        "faculty": "N/A",
        "duration": "N/A",
        "location": "On Campus",
        "institution": ""
    },
    {
        "name": "National N-Diploma (N4-N6): Educare",
        "faculty": "N/A",
        "duration": "N/A",
        "location": "On Campus",
        "institution": ""
    },
    {
        "name": "National N-Diploma (N4-N6): Clothing Production",
        "faculty": "N/A",
        "duration": "N/A",
        "location": "On Campus",
        "institution": ""
    },
    {
        "name": "National N-Diploma (N4-N6): Business Management",
        "faculty": "N/A",
        "duration": "N/A",
        "location": "On Campus",
        "institution": ""
    },
    {
        "name": "Occupational Learning: CBMT - Welder Phase 1-4",
        "faculty": "N/A",
        "duration": "N/A",
        "location": "On Campus",
        "institution": ""
    },
    {
        "name": "Occupational Learning: CBMT - Wall and Floor Tiler",
        "faculty": "N/A",
        "duration": "N/A",
        "location": "On Campus",
        "institution": ""
    },
    {
        "name": "Occupational Learning: CBMT - Vehicle (Spray) Painter Level 1-3",
        "faculty": "N/A",
        "duration": "N/A",
        "location": "On Campus",
        "institution": ""
    },
    {
        "name": "Occupational Learning: CBMT - Plasterer",
        "faculty": "N/A",
        "duration": "N/A",
        "location": "On Campus",
        "institution": ""
    },
    {
        "name": "Occupational Learning: CBMT - Panel Beater",
        "faculty": "N/A",
        "duration": "N/A",
        "location": "On Campus",
        "institution": ""
    },
    {
        "name": "Occupational Learning: CBMT - Metal Machinist Phase 1-4",
        "faculty": "N/A",
        "duration": "N/A",
        "location": "On Campus",
        "institution": ""
    },
    {
        "name": "Occupational Learning: CBMT - Mechanical Fitter Phase 1-4",
        "faculty": "N/A",
        "duration": "N/A",
        "location": "On Campus",
        "institution": ""
    },
    {
        "name": "Occupational Learning: CBMT - Fitter and Turner",
        "faculty": "N/A",
        "duration": "N/A",
        "location": "On Campus",
        "institution": ""
    },
    {
        "name": "Occupational Learning: CBMT - Electronic Equipment Machanician Phase 1-4",
        "faculty": "N/A",
        "duration": "N/A",
        "location": "On Campus",
        "institution": ""
    },
    {
        "name": "Occupational Learning: CBMT - Diesel Fitter",
        "faculty": "N/A",
        "duration": "N/A",
        "location": "On Campus",
        "institution": ""
    },
    {
        "name": "Occupational Learning: CBMT - Carpenter and Joiner",
        "faculty": "N/A",
        "duration": "N/A",
        "location": "On Campus",
        "institution": ""
    },
    {
        "name": "Occupational Learning: CBMT - Automotive Motor Mechanics Level 1-2",
        "faculty": "N/A",
        "duration": "N/A",
        "location": "On Campus",
        "institution": ""
    },
    {
        "name": "Occupational Learning: CBMT - Automotive Electrician Phase 1-4",
        "faculty": "N/A",
        "duration": "N/A",
        "location": "On Campus",
        "institution": ""
    },
    {
        "name": "Occupational Learning: Accredited Hairdressing Short Skills Course In HAIR STYLING TECHNIQUES",
        "faculty": "N/A",
        "duration": "N/A",
        "location": "On Campus",
        "institution": ""
    },
    {
        "name": "Occupational Learning: Accredited Hairdressing Short Skills Course In MAKE-UP",
        "faculty": "N/A",
        "duration": "N/A",
        "location": "On Campus",
        "institution": ""
    },
    {
        "name": "Occupational Learning: Accredited Hairdressing Short Skills Course In LONG HAIR STYLING",
        "faculty": "N/A",
        "duration": "N/A",
        "location": "On Campus",
        "institution": ""
    },
    {
        "name": "Occupational Learning: Cosmetology Short Skills Course In GEL NAIL EXTENSIONS",
        "faculty": "N/A",
        "duration": "N/A",
        "location": "On Campus",
        "institution": ""
    },
    {
        "name": "Occupational Learning: Cosmetology Short Skills Course In ACRYLIC NAIL EXTENSIONS",
        "faculty": "N/A",
        "duration": "N/A",
        "location": "On Campus",
        "institution": ""
    },
    {
        "name": "Occupational Learning: Cosmetology Short Skills Course In MAKE-UP",
        "faculty": "N/A",
        "duration": "N/A",
        "location": "On Campus",
        "institution": ""
    },
    {
        "name": "Occupational Learning: Cosmetology Short Skills Course In BODY MASSAGE",
        "faculty": "N/A",
        "duration": "N/A",
        "location": "On Campus",
        "institution": ""
    },
    {
        "name": "Occupational Learning: Sport Fitness (Exercise Specialist)",
        "faculty": "N/A",
        "duration": "N/A",
        "location": "On Campus",
        "institution": ""
    },
    {
        "name": "Occupational Learning: Pearson (UK) National Higher Diploma: Performing Arts QCF Level 5",
        "faculty": "N/A",
        "duration": "N/A",
        "location": "On Campus",
        "institution": ""
    },
    {
        "name": "Occupational Learning: ITEC InterNational N-Diploma (N4-N6): Cosmetology",
        "faculty": "N/A",
        "duration": "N/A",
        "location": "On Campus",
        "institution": ""
    },
    {
        "name": "Occupational Learning: ITEC International Diploma Cosmetology 2nd Year",
        "faculty": "N/A",
        "duration": "N/A",
        "location": "On Campus",
        "institution": ""
    },
    {
        "name": "Occupational Learning: IT - PC Technician & Network+",
        "faculty": "N/A",
        "duration": "N/A",
        "location": "On Campus",
        "institution": ""
    },
    {
        "name": "Occupational Learning: IT - Graphic Design and Web Development",
        "faculty": "N/A",
        "duration": "N/A",
        "location": "On Campus",
        "institution": ""
    },
    {
        "name": "Occupational Learning: Hospitality AND City & Guilds Diploma in Patisserie and Culinary Arts",
        "faculty": "N/A",
        "duration": "N/A",
        "location": "On Campus",
        "institution": ""
    },
    {
        "name": "Occupational Learning: Hospitality AND City & Guilds Dipl in Food & Beverage/Reception/Accom Services",
        "faculty": "N/A",
        "duration": "N/A",
        "location": "On Campus",
        "institution": ""
    },
    {
        "name": "Occupational Learning: Hair Care Level 4",
        "faculty": "N/A",
        "duration": "N/A",
        "location": "On Campus",
        "institution": ""
    },
    {
        "name": "Occupational Learning: Hair Care Level 3",
        "faculty": "N/A",
        "duration": "N/A",
        "location": "On Campus",
        "institution": ""
    },
    {
        "name": "Occupational Learning: Hair Care Level 2",
        "faculty": "N/A",
        "duration": "N/A",
        "location": "On Campus",
        "institution": ""
    },
    {
        "name": "Occupational Learning: FET Certificate: Sport Coaching NQF 04",
        "faculty": "N/A",
        "duration": "N/A",
        "location": "On Campus",
        "institution": ""
    },
    {
        "name": "Occupational Learning: FET Certificate: Sport Administration NQF 04",
        "faculty": "N/A",
        "duration": "N/A",
        "location": "On Campus",
        "institution": ""
    },
    {
        "name": "Occupational Learning: FET Certificate Sport Management NQF 05",
        "faculty": "N/A",
        "duration": "N/A",
        "location": "On Campus",
        "institution": ""
    },
    {
        "name": "Occupational Learning: FET Certificate Sport Coaching Science NQF 05",
        "faculty": "N/A",
        "duration": "N/A",
        "location": "On Campus",
        "institution": ""
    },
    {
        "name": "Occupational Learning: CBMT - Plumber",
        "faculty": "N/A",
        "duration": "N/A",
        "location": "On Campus",
        "institution": ""
    },
    {
        "name": "Occupational Learning: CBMT - Painter",
        "faculty": "N/A",
        "duration": "N/A",
        "location": "On Campus",
        "institution": ""
    },
    {
        "name": "Occupational Learning: CBMT - Electrician Phase 1-3",
        "faculty": "N/A",
        "duration": "N/A",
        "location": "On Campus",
        "institution": ""
    },
    {
        "name": "Occupational Learning: CBMT - Carpenter",
        "faculty": "N/A",
        "duration": "N/A",
        "location": "On Campus",
        "institution": ""
    },
    {
        "name": "Occupational Learning: CBMT - Bricklayer",
        "faculty": "N/A",
        "duration": "N/A",
        "location": "On Campus",
        "institution": ""
    },
    {
        "name": "Occupational Learning: CBMT - Boilermaking Level 1-4",
        "faculty": "N/A",
        "duration": "N/A",
        "location": "On Campus",
        "institution": ""
    },
    {
        "name": "Occupational Learning: AutoCAD",
        "faculty": "N/A",
        "duration": "N/A",
        "location": "On Campus",
        "institution": ""
    },
    {
        "name": "",
        "faculty": "N/A",
        "duration": "N/A",
        "location": "On Campus",
        "institution": ""
    },
    {
        "name": "National Certificate (Vocational): Business Studies",
        "faculty": "N/A",
        "duration": "N/A",
        "location": "On Campus",
        "institution": "Sedibeng",
        "region": " Gauteng"
    },
    {
        "name": "National Certificate (Vocational): Financial, Economics, and Accounting",
        "faculty": "N/A",
        "duration": "N/A",
        "location": "On Campus",
        "institution": "Sedibeng",
        "region": " Gauteng"
    },
    {
        "name": "National Certificate (Vocational): Management",
        "faculty": "N/A",
        "duration": "N/A",
        "location": "On Campus",
        "institution": "Sedibeng",
        "region": " Gauteng"
    },
    {
        "name": "National Certificate (Vocational): Marketing",
        "faculty": "N/A",
        "duration": "N/A",
        "location": "On Campus",
        "institution": "Sedibeng",
        "region": " Gauteng"
    },
    {
        "name": "National Certificate (Vocational): Office Administration",
        "faculty": "N/A",
        "duration": "N/A",
        "location": "On Campus",
        "institution": "Sedibeng",
        "region": " Gauteng"
    },
    {
        "name": "National Certificate (Vocational): Hospitality",
        "faculty": "N/A",
        "duration": "N/A",
        "location": "On Campus",
        "institution": "Sedibeng",
        "region": " Gauteng"
    },
    {
        "name": "Civil & Building Construction",
        "faculty": "N/A",
        "duration": "N/A",
        "location": "On Campus",
        "institution": "Sedibeng",
        "region": " Gauteng"
    },
    {
        "name": "Electrical Infrastructure Construction",
        "faculty": "N/A",
        "duration": "N/A",
        "location": "On Campus",
        "institution": "Sedibeng",
        "region": " Gauteng"
    },
    {
        "name": "Engineering Related Design",
        "faculty": "N/A",
        "duration": "N/A",
        "location": "On Campus",
        "institution": "Sedibeng",
        "region": " Gauteng"
    },
    {
        "name": "Information Technology & Computer Science",
        "faculty": "N/A",
        "duration": "N/A",
        "location": "On Campus",
        "institution": "Sedibeng",
        "region": " Gauteng"
    },
    {
        "name": "Mechatronics",
        "faculty": "N/A",
        "duration": "N/A",
        "location": "On Campus",
        "institution": "Sedibeng",
        "region": " Gauteng"
    },
    {
        "name": "Nated: Marketing Management",
        "faculty": "N/A",
        "duration": "N/A",
        "location": "On Campus",
        "institution": "Sedibeng",
        "region": " Gauteng"
    },
    {
        "name": "Nated: Management Assistant",
        "faculty": "N/A",
        "duration": "N/A",
        "location": "On Campus",
        "institution": "Sedibeng",
        "region": " Gauteng"
    },
    {
        "name": "Nated: Business Management",
        "faculty": "N/A",
        "duration": "N/A",
        "location": "On Campus",
        "institution": "Sedibeng",
        "region": " Gauteng"
    },
    {
        "name": "Nated: Tourism",
        "faculty": "N/A",
        "duration": "N/A",
        "location": "On Campus",
        "institution": "Sedibeng",
        "region": " Gauteng"
    },
    {
        "name": "Nated: Hospitality",
        "faculty": "N/A",
        "duration": "N/A",
        "location": "On Campus",
        "institution": "Sedibeng",
        "region": " Gauteng"
    },
    {
        "name": "Nated: Human Resource Management",
        "faculty": "N/A",
        "duration": "N/A",
        "location": "On Campus",
        "institution": "Sedibeng",
        "region": " Gauteng"
    },
    {
        "name": "Nated: Public Administration",
        "faculty": "N/A",
        "duration": "N/A",
        "location": "On Campus",
        "institution": "Sedibeng",
        "region": " Gauteng"
    },
    {
        "name": "Nated: Engineering Studies",
        "faculty": "N/A",
        "duration": "N/A",
        "location": "On Campus",
        "institution": "Sedibeng",
        "region": " Gauteng"
    },
    {
        "name": "Nated: Artisan Development Programme",
        "faculty": "N/A",
        "duration": "N/A",
        "location": "On Campus",
        "institution": "Sedibeng",
        "region": " Gauteng"
    },
    {
        "name": "Nated: Mechanical Engineering",
        "faculty": "N/A",
        "duration": "N/A",
        "location": "On Campus",
        "institution": "Sedibeng",
        "region": " Gauteng"
    },
    {
        "name": "Nated: Electrical Engineering",
        "faculty": "N/A",
        "duration": "N/A",
        "location": "On Campus",
        "institution": "Sedibeng",
        "region": " Gauteng"
    },
    {
        "name": "Learnership: Community House Building",
        "faculty": "N/A",
        "duration": "N/A",
        "location": "On Campus",
        "institution": "Sedibeng",
        "region": " Gauteng"
    },
    {
        "name": "Learnership: Hairdressing",
        "faculty": "N/A",
        "duration": "N/A",
        "location": "On Campus",
        "institution": "Sedibeng",
        "region": " Gauteng"
    },
    {
        "name": "Learnership: End User Computer",
        "faculty": "N/A",
        "duration": "N/A",
        "location": "On Campus",
        "institution": "Sedibeng",
        "region": " Gauteng"
    },
    {
        "name": "Apprenticeship : Electrical",
        "faculty": "N/A",
        "duration": "N/A",
        "location": "On Campus",
        "institution": "Sedibeng",
        "region": " Gauteng"
    },
    {
        "name": "Apprenticeship : Fitting & Turning",
        "faculty": "N/A",
        "duration": "N/A",
        "location": "On Campus",
        "institution": "Sedibeng",
        "region": " Gauteng"
    },
    {
        "name": "",
        "faculty": "N/A",
        "duration": "N/A",
        "location": "On Campus",
        "institution": "Sedibeng",
        "region": " Gauteng"
    },
    {
        "name": "National Certificate (Vocational): Finance, Economics And Accounting NC(V) Levels 2 – 4",
        "faculty": "N/A",
        "duration": "N/A",
        "location": "On Campus",
        "institution": "South West College",
        "region": " Gauteng"
    },
    {
        "name": "National Certificate (Vocational): Management NC(V)Levels 2 – 4",
        "faculty": "N/A",
        "duration": "N/A",
        "location": "On Campus",
        "institution": "South West College",
        "region": " Gauteng"
    },
    {
        "name": "National Certificate (Vocational): Marketing NC(V)Levels 2 – 4",
        "faculty": "N/A",
        "duration": "N/A",
        "location": "On Campus",
        "institution": "South West College",
        "region": " Gauteng"
    },
    {
        "name": "National Certificate (Vocational): Office Administration NC (V) Level 2 – 4",
        "faculty": "N/A",
        "duration": "N/A",
        "location": "On Campus",
        "institution": "South West College",
        "region": " Gauteng"
    },
    {
        "name": "National Certificate (Vocational): Civil Engineering And Building Construction NC (V) Level 2-4",
        "faculty": "N/A",
        "duration": "N/A",
        "location": "On Campus",
        "institution": "South West College",
        "region": " Gauteng"
    },
    {
        "name": "National Certificate (Vocational): Electrical Infrastructure Construction NC (V) Level 2-4",
        "faculty": "N/A",
        "duration": "N/A",
        "location": "On Campus",
        "institution": "South West College",
        "region": " Gauteng"
    },
    {
        "name": "National Certificate (Vocational): Engineering And Related Design NC (V) Level 2-4",
        "faculty": "N/A",
        "duration": "N/A",
        "location": "On Campus",
        "institution": "South West College",
        "region": " Gauteng"
    },
    {
        "name": "National Certificate (Vocational): Education And Development NC (V) Level 2-4",
        "faculty": "N/A",
        "duration": "N/A",
        "location": "On Campus",
        "institution": "South West College",
        "region": " Gauteng"
    },
    {
        "name": "National Certificate (Vocational): Hospitality NC (V) Level 2-4",
        "faculty": "N/A",
        "duration": "N/A",
        "location": "On Campus",
        "institution": "South West College",
        "region": " Gauteng"
    },
    {
        "name": "National Certificate (Vocational): Information Technology And Computer Science (ITC) NC (V) Level 2-4",
        "faculty": "N/A",
        "duration": "N/A",
        "location": "On Campus",
        "institution": "South West College",
        "region": " Gauteng"
    },
    {
        "name": "National Certificate (Vocational): Transport And Logistics NC (V) Level 2-4",
        "faculty": "N/A",
        "duration": "N/A",
        "location": "On Campus",
        "institution": "South West College",
        "region": " Gauteng"
    },
    {
        "name": "National Certificate (Vocational): Primary Agriculture NC(V) Level 2-4",
        "faculty": "N/A",
        "duration": "N/A",
        "location": "On Campus",
        "institution": "South West College",
        "region": " Gauteng"
    },
    {
        "name": "National Certificate (Vocational): Primary Health NC(V) Level 2-4",
        "faculty": "N/A",
        "duration": "N/A",
        "location": "On Campus",
        "institution": "South West College",
        "region": " Gauteng"
    },
    {
        "name": "National Certificate (Vocational): Safety In Society NC (V) Level 2-4",
        "faculty": "N/A",
        "duration": "N/A",
        "location": "On Campus",
        "institution": "South West College",
        "region": " Gauteng"
    },
    {
        "name": "National Certificate (Vocational): Tourism NC (V) Level 2-4",
        "faculty": "N/A",
        "duration": "N/A",
        "location": "On Campus",
        "institution": "South West College",
        "region": " Gauteng"
    },
    {
        "name": "National Certificates N4-N6: Business Studies",
        "faculty": "N/A",
        "duration": "N/A",
        "location": "On Campus",
        "institution": "South West College",
        "region": " Gauteng"
    },
    {
        "name": "National Certificates N1-N6: Engineering Studies ",
        "faculty": "N/A",
        "duration": "N/A",
        "location": "On Campus",
        "institution": "South West College",
        "region": " Gauteng"
    },
    {
        "name": "National Certificates N4-N6: Utility Studies",
        "faculty": "N/A",
        "duration": "N/A",
        "location": "On Campus",
        "institution": "South West College",
        "region": " Gauteng"
    },
    {
        "name": "National Certificate: Contact Centre",
        "faculty": "N/A",
        "duration": "N/A",
        "location": "On Campus",
        "institution": "South West College",
        "region": " Gauteng"
    },
    {
        "name": "National Certificate: Ward Committee Governance",
        "faculty": "N/A",
        "duration": "N/A",
        "location": "On Campus",
        "institution": "South West College",
        "region": " Gauteng"
    },
    {
        "name": "National Certificate: Local Government Practises",
        "faculty": "N/A",
        "duration": "N/A",
        "location": "On Campus",
        "institution": "South West College",
        "region": " Gauteng"
    },
    {
        "name": "FET Certificate: School Of Business Administration",
        "faculty": "N/A",
        "duration": "N/A",
        "location": "On Campus",
        "institution": "South West College",
        "region": " Gauteng"
    },
    {
        "name": "National Certificate: Clothing Production",
        "faculty": "N/A",
        "duration": "N/A",
        "location": "On Campus",
        "institution": "South West College",
        "region": " Gauteng"
    },
    {
        "name": "National Certificate: Professional Driving",
        "faculty": "N/A",
        "duration": "N/A",
        "location": "On Campus",
        "institution": "South West College",
        "region": " Gauteng"
    },
    {
        "name": "National Certificate: Animal Production",
        "faculty": "N/A",
        "duration": "N/A",
        "location": "On Campus",
        "institution": "South West College",
        "region": " Gauteng"
    },
    {
        "name": "National Certificate: Plant Production",
        "faculty": "N/A",
        "duration": "N/A",
        "location": "On Campus",
        "institution": "South West College",
        "region": " Gauteng"
    },
    {
        "name": "National Certificate: Parallegal",
        "faculty": "N/A",
        "duration": "N/A",
        "location": "On Campus",
        "institution": "South West College",
        "region": " Gauteng"
    },
    {
        "name": "Boiler Maker",
        "faculty": "N/A",
        "duration": "N/A",
        "location": "On Campus",
        "institution": "South West College",
        "region": " Gauteng"
    },
    {
        "name": "Fitter and Turner",
        "faculty": "N/A",
        "duration": "N/A",
        "location": "On Campus",
        "institution": "South West College",
        "region": " Gauteng"
    },
    {
        "name": "Welder",
        "faculty": "N/A",
        "duration": "N/A",
        "location": "On Campus",
        "institution": "South West College",
        "region": " Gauteng"
    },
    {
        "name": "Diesel Mechanic",
        "faculty": "N/A",
        "duration": "N/A",
        "location": "On Campus",
        "institution": "South West College",
        "region": " Gauteng"
    },
    {
        "name": "Turner",
        "faculty": "N/A",
        "duration": "N/A",
        "location": "On Campus",
        "institution": "South West College",
        "region": " Gauteng"
    },
    {
        "name": "Fitter",
        "faculty": "N/A",
        "duration": "N/A",
        "location": "On Campus",
        "institution": "South West College",
        "region": " Gauteng"
    },
    {
        "name": "National Certificate: Food and Beverages",
        "faculty": "N/A",
        "duration": "N/A",
        "location": "On Campus",
        "institution": "South West College",
        "region": " Gauteng"
    },
    {
        "name": "National Certificate: Professional Cookery",
        "faculty": "N/A",
        "duration": "N/A",
        "location": "On Campus",
        "institution": "South West College",
        "region": " Gauteng"
    },
    {
        "name": "National Certificate: New Venture Creation",
        "faculty": "N/A",
        "duration": "N/A",
        "location": "On Campus",
        "institution": "South West College",
        "region": " Gauteng"
    },
    {
        "name": "FET Certificate: Early Childhood Development",
        "faculty": "N/A",
        "duration": "N/A",
        "location": "On Campus",
        "institution": "South West College",
        "region": " Gauteng"
    },
    {
        "name": "National Certificate: Electrician",
        "faculty": "N/A",
        "duration": "N/A",
        "location": "On Campus",
        "institution": "South West College",
        "region": " Gauteng"
    },
    {
        "name": "National Certificate: Tourist Guiding",
        "faculty": "N/A",
        "duration": "N/A",
        "location": "On Campus",
        "institution": "South West College",
        "region": " Gauteng"
    },
    {
        "name": "Short-term Insurance",
        "faculty": "N/A",
        "duration": "N/A",
        "location": "On Campus",
        "institution": "South West College",
        "region": " Gauteng"
    },
    {
        "name": "Real Estate",
        "faculty": "N/A",
        "duration": "N/A",
        "location": "On Campus",
        "institution": "South West College",
        "region": " Gauteng"
    },
    {
        "name": "Welding",
        "faculty": "N/A",
        "duration": "N/A",
        "location": "On Campus",
        "institution": "South West College",
        "region": " Gauteng"
    },
    {
        "name": "Bricklaying",
        "faculty": "N/A",
        "duration": "N/A",
        "location": "On Campus",
        "institution": "South West College",
        "region": " Gauteng"
    },
    {
        "name": "Plumbing",
        "faculty": "N/A",
        "duration": "N/A",
        "location": "On Campus",
        "institution": "South West College",
        "region": " Gauteng"
    },
    {
        "name": "Cabinet Making",
        "faculty": "N/A",
        "duration": "N/A",
        "location": "On Campus",
        "institution": "South West College",
        "region": " Gauteng"
    },
    {
        "name": "Clothing Production",
        "faculty": "N/A",
        "duration": "N/A",
        "location": "On Campus",
        "institution": "South West College",
        "region": " Gauteng"
    },
    {
        "name": "Broilers",
        "faculty": "N/A",
        "duration": "N/A",
        "location": "On Campus",
        "institution": "South West College",
        "region": " Gauteng"
    },
    {
        "name": "Information Technology and Computer Science",
        "faculty": "N/A",
        "duration": "N/A",
        "location": "On Campus",
        "institution": "South West College",
        "region": " Gauteng"
    },
    {
        "name": "Comp TIA A+",
        "faculty": "N/A",
        "duration": "N/A",
        "location": "On Campus",
        "institution": "South West College",
        "region": " Gauteng"
    },
    {
        "name": "N+",
        "faculty": "N/A",
        "duration": "N/A",
        "location": "On Campus",
        "institution": "South West College",
        "region": " Gauteng"
    },
    {
        "name": "End-user Computing",
        "faculty": "N/A",
        "duration": "N/A",
        "location": "On Campus",
        "institution": "South West College",
        "region": " Gauteng"
    },
    {
        "name": "ICDL",
        "faculty": "N/A",
        "duration": "N/A",
        "location": "On Campus",
        "institution": "South West College",
        "region": " Gauteng"
    },
    {
        "name": "Cisco IT Essentials",
        "faculty": "N/A",
        "duration": "N/A",
        "location": "On Campus",
        "institution": "South West College",
        "region": " Gauteng"
    },
    {
        "name": "Programming",
        "faculty": "N/A",
        "duration": "N/A",
        "location": "On Campus",
        "institution": "South West College",
        "region": " Gauteng"
    },
    {
        "name": "Multimedia and Web design",
        "faculty": "N/A",
        "duration": "N/A",
        "location": "On Campus",
        "institution": "South West College",
        "region": " Gauteng"
    },
    {
        "name": "Elconop (electrical Construction and Operations) 2 & 3",
        "faculty": "N/A",
        "duration": "N/A",
        "location": "On Campus",
        "institution": "South West College",
        "region": " Gauteng"
    },
    {
        "name": "Introduction to Insurance",
        "faculty": "N/A",
        "duration": "N/A",
        "location": "On Campus",
        "institution": "South West College",
        "region": " Gauteng"
    },
    {
        "name": "",
        "faculty": "N/A",
        "duration": "N/A",
        "location": "On Campus",
        "institution": "South West College",
        "region": " Gauteng"
    },
    {
        "name": "National Certificate (Vocational): Primary Agriculture ",
        "faculty": "N/A",
        "duration": "N/A",
        "location": "On Campus",
        "institution": "Taletso College",
        "region": " North West"
    },
    {
        "name": "National N1 – N6 Certificates: Business Management",
        "faculty": "N/A",
        "duration": "N/A",
        "location": "On Campus",
        "institution": "Taletso College",
        "region": " North West"
    },
    {
        "name": "National Certificate (Vocational): Finance, Economics and Accounting",
        "faculty": "N/A",
        "duration": "N/A",
        "location": "On Campus",
        "institution": "Taletso College",
        "region": " North West"
    },
    {
        "name": "Financial Management ",
        "faculty": "N/A",
        "duration": "N/A",
        "location": "On Campus",
        "institution": "Taletso College",
        "region": " North West"
    },
    {
        "name": "National N1 – N6 Certificates: Human Resource Management",
        "faculty": "N/A",
        "duration": "N/A",
        "location": "On Campus",
        "institution": "Taletso College",
        "region": " North West"
    },
    {
        "name": "National Certificate (Vocational): Management",
        "faculty": "N/A",
        "duration": "N/A",
        "location": "On Campus",
        "institution": "Taletso College",
        "region": " North West"
    },
    {
        "name": "National N1 – N6 Certificates: Marketing",
        "faculty": "N/A",
        "duration": "N/A",
        "location": "On Campus",
        "institution": "Taletso College",
        "region": " North West"
    },
    {
        "name": "Civil Engineering",
        "faculty": "N/A",
        "duration": "N/A",
        "location": "On Campus",
        "institution": "Taletso College",
        "region": " North West"
    },
    {
        "name": "National N1 – N6 Certificates: Electrical Engineering",
        "faculty": "N/A",
        "duration": "N/A",
        "location": "On Campus",
        "institution": "Taletso College",
        "region": " North West"
    },
    {
        "name": "National Certificate (Vocational): Electrical Infrastructure Construction",
        "faculty": "N/A",
        "duration": "N/A",
        "location": "On Campus",
        "institution": "Taletso College",
        "region": " North West"
    },
    {
        "name": "National Certificate (Vocational): Engineering and Related Design",
        "faculty": "N/A",
        "duration": "N/A",
        "location": "On Campus",
        "institution": "Taletso College",
        "region": " North West"
    },
    {
        "name": "National N1 – N6 Certificates: Mechanical Engineering",
        "faculty": "N/A",
        "duration": "N/A",
        "location": "On Campus",
        "institution": "Taletso College",
        "region": " North West"
    },
    {
        "name": "National Certificate (Vocational): Hospitality",
        "faculty": "N/A",
        "duration": "N/A",
        "location": "On Campus",
        "institution": "Taletso College",
        "region": " North West"
    },
    {
        "name": "National Certificate (Vocational): Tourism",
        "faculty": "N/A",
        "duration": "N/A",
        "location": "On Campus",
        "institution": "Taletso College",
        "region": " North West"
    },
    {
        "name": "National Certificate (Vocational): Information Technology & Computer Science",
        "faculty": "N/A",
        "duration": "N/A",
        "location": "On Campus",
        "institution": "Taletso College",
        "region": " North West"
    },
    {
        "name": "Management Assistant ",
        "faculty": "N/A",
        "duration": "N/A",
        "location": "On Campus",
        "institution": "Taletso College",
        "region": " North West"
    },
    {
        "name": "National Certificate (Vocational): Office Administration",
        "faculty": "N/A",
        "duration": "N/A",
        "location": "On Campus",
        "institution": "Taletso College",
        "region": " North West"
    },
    {
        "name": "National Certificate (Vocational): Primary Health",
        "faculty": "N/A",
        "duration": "N/A",
        "location": "On Campus",
        "institution": "Taletso College",
        "region": " North West"
    },
    {
        "name": "",
        "faculty": "N/A",
        "duration": "N/A",
        "location": "On Campus",
        "institution": "Taletso College",
        "region": " North West"
    },
    {
        "name": "Craft and Confectionery Baking",
        "faculty": "N/A",
        "duration": "N/A",
        "location": "On Campus",
        "institution": "Tshwane North",
        "region": " Gauteng"
    },
    {
        "name": "Cosmetology/ Beauty Therapy",
        "faculty": "N/A",
        "duration": "N/A",
        "location": "On Campus",
        "institution": "Tshwane North",
        "region": " Gauteng"
    },
    {
        "name": "Hairdressing NQF Level 2-4",
        "faculty": "N/A",
        "duration": "N/A",
        "location": "On Campus",
        "institution": "Tshwane North",
        "region": " Gauteng"
    },
    {
        "name": "Baking",
        "faculty": "N/A",
        "duration": "N/A",
        "location": "On Campus",
        "institution": "Tshwane North",
        "region": " Gauteng"
    },
    {
        "name": "Curtain Making",
        "faculty": "N/A",
        "duration": "N/A",
        "location": "On Campus",
        "institution": "Tshwane North",
        "region": " Gauteng"
    },
    {
        "name": "Flower Arranging",
        "faculty": "N/A",
        "duration": "N/A",
        "location": "On Campus",
        "institution": "Tshwane North",
        "region": " Gauteng"
    },
    {
        "name": "Garment Making",
        "faculty": "N/A",
        "duration": "N/A",
        "location": "On Campus",
        "institution": "Tshwane North",
        "region": " Gauteng"
    },
    {
        "name": "Events Management",
        "faculty": "N/A",
        "duration": "N/A",
        "location": "On Campus",
        "institution": "Tshwane North",
        "region": " Gauteng"
    },
    {
        "name": "Linen Making",
        "faculty": "N/A",
        "duration": "N/A",
        "location": "On Campus",
        "institution": "Tshwane North",
        "region": " Gauteng"
    },
    {
        "name": "Fashion Design",
        "faculty": "N/A",
        "duration": "N/A",
        "location": "On Campus",
        "institution": "Tshwane North",
        "region": " Gauteng"
    },
    {
        "name": "Manicure, Pedicure and Make-Up",
        "faculty": "N/A",
        "duration": "N/A",
        "location": "On Campus",
        "institution": "Tshwane North",
        "region": " Gauteng"
    },
    {
        "name": "End-User Computing",
        "faculty": "N/A",
        "duration": "N/A",
        "location": "On Campus",
        "institution": "Tshwane North",
        "region": " Gauteng"
    },
    {
        "name": "Upholstery",
        "faculty": "N/A",
        "duration": "N/A",
        "location": "On Campus",
        "institution": "Tshwane North",
        "region": " Gauteng"
    },
    {
        "name": "PC Repair",
        "faculty": "N/A",
        "duration": "N/A",
        "location": "On Campus",
        "institution": "Tshwane North",
        "region": " Gauteng"
    },
    {
        "name": "Project Management",
        "faculty": "N/A",
        "duration": "N/A",
        "location": "On Campus",
        "institution": "Tshwane North",
        "region": " Gauteng"
    },
    {
        "name": "National N-Diploma (N4-N6):Management Assistant",
        "faculty": "N/A",
        "duration": "N/A",
        "location": "On Campus",
        "institution": "Tshwane North",
        "region": " Gauteng"
    },
    {
        "name": "National N-Diploma (N4-N6):Tourism",
        "faculty": "N/A",
        "duration": "N/A",
        "location": "On Campus",
        "institution": "Tshwane North",
        "region": " Gauteng"
    },
    {
        "name": "National N-Diploma (N4-N6):Public Relations",
        "faculty": "N/A",
        "duration": "N/A",
        "location": "On Campus",
        "institution": "Tshwane North",
        "region": " Gauteng"
    },
    {
        "name": "National N-Diploma (N4-N6):Art and Design",
        "faculty": "N/A",
        "duration": "N/A",
        "location": "On Campus",
        "institution": "Tshwane North",
        "region": " Gauteng"
    },
    {
        "name": "National N-Diploma (N4-N6):Marketing Management",
        "faculty": "N/A",
        "duration": "N/A",
        "location": "On Campus",
        "institution": "Tshwane North",
        "region": " Gauteng"
    },
    {
        "name": "National N-Diploma (N4-N6):Financial Management",
        "faculty": "N/A",
        "duration": "N/A",
        "location": "On Campus",
        "institution": "Tshwane North",
        "region": " Gauteng"
    },
    {
        "name": "National N-Diploma (N4-N6):Hospitality",
        "faculty": "N/A",
        "duration": "N/A",
        "location": "On Campus",
        "institution": "Tshwane North",
        "region": " Gauteng"
    },
    {
        "name": "National N-Diploma (N4-N6):Human Resource Management ",
        "faculty": "N/A",
        "duration": "N/A",
        "location": "On Campus",
        "institution": "Tshwane North",
        "region": " Gauteng"
    },
    {
        "name": "National N-Diploma (N4-N6):Clothing Production",
        "faculty": "N/A",
        "duration": "N/A",
        "location": "On Campus",
        "institution": "Tshwane North",
        "region": " Gauteng"
    },
    {
        "name": "National N-Diploma (N1-N6): Electrical Engineering (Heavy and Light Current)",
        "faculty": "N/A",
        "duration": "N/A",
        "location": "On Campus",
        "institution": "Tshwane North",
        "region": " Gauteng"
    },
    {
        "name": "National N-Diploma (N1-N6): Mechanical Engineering",
        "faculty": "N/A",
        "duration": "N/A",
        "location": "On Campus",
        "institution": "Tshwane North",
        "region": " Gauteng"
    },
    {
        "name": "National N-Diploma (N1-N6): Civil Engineering",
        "faculty": "N/A",
        "duration": "N/A",
        "location": "On Campus",
        "institution": "Tshwane North",
        "region": " Gauteng"
    },
    {
        "name": "National Certificate (Vocational): Finance; Economics and Accounting",
        "faculty": "N/A",
        "duration": "N/A",
        "location": "On Campus",
        "institution": "Tshwane North",
        "region": " Gauteng"
    },
    {
        "name": "National Certificate (Vocational): Generic Management",
        "faculty": "N/A",
        "duration": "N/A",
        "location": "On Campus",
        "institution": "Tshwane North",
        "region": " Gauteng"
    },
    {
        "name": "National Certificate (Vocational): Office Administration",
        "faculty": "N/A",
        "duration": "N/A",
        "location": "On Campus",
        "institution": "Tshwane North",
        "region": " Gauteng"
    },
    {
        "name": "National Certificate (Vocational): Marketing",
        "faculty": "N/A",
        "duration": "N/A",
        "location": "On Campus",
        "institution": "Tshwane North",
        "region": " Gauteng"
    },
    {
        "name": "National Certificate (Vocational): I.T and Computer science",
        "faculty": "N/A",
        "duration": "N/A",
        "location": "On Campus",
        "institution": "Tshwane North",
        "region": " Gauteng"
    },
    {
        "name": "National Certificate (Vocational): Electrical Infrastructure Construction",
        "faculty": "N/A",
        "duration": "N/A",
        "location": "On Campus",
        "institution": "Tshwane North",
        "region": " Gauteng"
    },
    {
        "name": "National Certificate (Vocational): Engineering and related design",
        "faculty": "N/A",
        "duration": "N/A",
        "location": "On Campus",
        "institution": "Tshwane North",
        "region": " Gauteng"
    },
    {
        "name": "National Certificate (Vocational): Civil engineering and Building Construction",
        "faculty": "N/A",
        "duration": "N/A",
        "location": "On Campus",
        "institution": "Tshwane North",
        "region": " Gauteng"
    },
    {
        "name": "National Certificate (Vocational): Hospitality",
        "faculty": "N/A",
        "duration": "N/A",
        "location": "On Campus",
        "institution": "Tshwane North",
        "region": " Gauteng"
    },
    {
        "name": "National Certificate (Vocational): Tourism",
        "faculty": "N/A",
        "duration": "N/A",
        "location": "On Campus",
        "institution": "Tshwane North",
        "region": " Gauteng"
    },
    {
        "name": "National Certificate (Vocational): Safety in Society",
        "faculty": "N/A",
        "duration": "N/A",
        "location": "On Campus",
        "institution": "Tshwane North",
        "region": " Gauteng"
    },
    {
        "name": "National Certificate (Vocational): Office Administration",
        "faculty": "N/A",
        "duration": "N/A",
        "location": "On Campus",
        "institution": "Tshwane South College",
        "region": " Gauteng"
    },
    {
        "name": "National Certificate (Vocational): Finance Economics and Accounting",
        "faculty": "N/A",
        "duration": "N/A",
        "location": "On Campus",
        "institution": "Tshwane South College",
        "region": " Gauteng"
    },
    {
        "name": "National Certificate (Vocational): Tourism",
        "faculty": "N/A",
        "duration": "N/A",
        "location": "On Campus",
        "institution": "Tshwane South College",
        "region": " Gauteng"
    },
    {
        "name": "National Certificate (Vocational): Hospitality",
        "faculty": "N/A",
        "duration": "N/A",
        "location": "On Campus",
        "institution": "Tshwane South College",
        "region": " Gauteng"
    },
    {
        "name": "National Certificate (Vocational): Civil Engineering and Building Construction",
        "faculty": "N/A",
        "duration": "N/A",
        "location": "On Campus",
        "institution": "Tshwane South College",
        "region": " Gauteng"
    },
    {
        "name": "National Certificate (Vocational): Engineering and Related Design",
        "faculty": "N/A",
        "duration": "N/A",
        "location": "On Campus",
        "institution": "Tshwane South College",
        "region": " Gauteng"
    },
    {
        "name": "National Certificate (Vocational): Electrical Infrastructure and Construction",
        "faculty": "N/A",
        "duration": "N/A",
        "location": "On Campus",
        "institution": "Tshwane South College",
        "region": " Gauteng"
    },
    {
        "name": "National Certificate (Vocational): Information Technology",
        "faculty": "N/A",
        "duration": "N/A",
        "location": "On Campus",
        "institution": "Tshwane South College",
        "region": " Gauteng"
    },
    {
        "name": "Learnership: Mechanical Engineering",
        "faculty": "N/A",
        "duration": "N/A",
        "location": "On Campus",
        "institution": "Tshwane South College",
        "region": " Gauteng"
    },
    {
        "name": "Learnership: Fabrication ",
        "faculty": "N/A",
        "duration": "N/A",
        "location": "On Campus",
        "institution": "Tshwane South College",
        "region": " Gauteng"
    },
    {
        "name": "Learnership: Welding ",
        "faculty": "N/A",
        "duration": "N/A",
        "location": "On Campus",
        "institution": "Tshwane South College",
        "region": " Gauteng"
    },
    {
        "name": "Learnership: Machining and Tooling",
        "faculty": "N/A",
        "duration": "N/A",
        "location": "On Campus",
        "institution": "Tshwane South College",
        "region": " Gauteng"
    },
    {
        "name": "Learnership: Machining and Fitting",
        "faculty": "N/A",
        "duration": "N/A",
        "location": "On Campus",
        "institution": "Tshwane South College",
        "region": " Gauteng"
    },
    {
        "name": "Learnership: Autotronics ",
        "faculty": "N/A",
        "duration": "N/A",
        "location": "On Campus",
        "institution": "Tshwane South College",
        "region": " Gauteng"
    },
    {
        "name": "Learnership: Automotive Component Manufacturing and Assembly",
        "faculty": "N/A",
        "duration": "N/A",
        "location": "On Campus",
        "institution": "Tshwane South College",
        "region": " Gauteng"
    },
    {
        "name": "Learnership: Automotive Repair and Maintenance",
        "faculty": "N/A",
        "duration": "N/A",
        "location": "On Campus",
        "institution": "Tshwane South College",
        "region": " Gauteng"
    },
    {
        "name": "Learnership: Mechatronics",
        "faculty": "N/A",
        "duration": "N/A",
        "location": "On Campus",
        "institution": "Tshwane South College",
        "region": " Gauteng"
    },
    {
        "name": "National N-Diploma (N1-N6): Natural Science",
        "faculty": "N/A",
        "duration": "N/A",
        "location": "On Campus",
        "institution": "Tshwane South College",
        "region": " Gauteng"
    },
    {
        "name": "National N-Diploma (N1-N6): Electrical N1- N6",
        "faculty": "N/A",
        "duration": "N/A",
        "location": "On Campus",
        "institution": "Tshwane South College",
        "region": " Gauteng"
    },
    {
        "name": "National N-Diploma (N1-N6): Mechanical N1 – N6",
        "faculty": "N/A",
        "duration": "N/A",
        "location": "On Campus",
        "institution": "Tshwane South College",
        "region": " Gauteng"
    },
    {
        "name": "National N-Diploma (N1-N6): Civil N1 – N6",
        "faculty": "N/A",
        "duration": "N/A",
        "location": "On Campus",
        "institution": "Tshwane South College",
        "region": " Gauteng"
    },
    {
        "name": "National N-Diploma (N5-N6): Management Assistant",
        "faculty": "N/A",
        "duration": "N/A",
        "location": "On Campus",
        "institution": "Tshwane South College",
        "region": " Gauteng"
    },
    {
        "name": "National N-Diploma (N4-N6): Hospitality Services",
        "faculty": "N/A",
        "duration": "N/A",
        "location": "On Campus",
        "institution": "Tshwane South College",
        "region": " Gauteng"
    },
    {
        "name": "National N-Diploma (N4-N6): Financial Management",
        "faculty": "N/A",
        "duration": "N/A",
        "location": "On Campus",
        "institution": "Tshwane South College",
        "region": " Gauteng"
    },
    {
        "name": "Early Childhood Development – NQF Level 4 and Level 5",
        "faculty": "N/A",
        "duration": "N/A",
        "location": "On Campus",
        "institution": "Tshwane South College",
        "region": " Gauteng"
    },
    {
        "name": "Clothing Production Skills",
        "faculty": "N/A",
        "duration": "N/A",
        "location": "On Campus",
        "institution": "Tshwane South College",
        "region": " Gauteng"
    },
    {
        "name": "Cosmetology",
        "faculty": "N/A",
        "duration": "N/A",
        "location": "On Campus",
        "institution": "Tshwane South College",
        "region": " Gauteng"
    },
    {
        "name": "Refrigeration",
        "faculty": "N/A",
        "duration": "N/A",
        "location": "On Campus",
        "institution": "Tshwane South College",
        "region": " Gauteng"
    },
    {
        "name": "Welding",
        "faculty": "N/A",
        "duration": "N/A",
        "location": "On Campus",
        "institution": "Tshwane South College",
        "region": " Gauteng"
    },
    {
        "name": "short-course: Pottery",
        "faculty": "N/A",
        "duration": "N/A",
        "location": "On Campus",
        "institution": "Tshwane South College",
        "region": " Gauteng"
    },
    {
        "name": "",
        "faculty": "N/A",
        "duration": "N/A",
        "location": "On Campus",
        "institution": "Tshwane South College",
        "region": " Gauteng"
    },
    {
        "name": "National Certificate (Vocational): Finance, Economics & Accounting",
        "faculty": "N/A",
        "duration": "N/A",
        "location": "On Campus",
        "institution": "Vuselela College",
        "region": " North West"
    },
    {
        "name": "National Certificate (Vocational): Electrical Infrastructure Construction",
        "faculty": "N/A",
        "duration": "N/A",
        "location": "On Campus",
        "institution": "Vuselela College",
        "region": " North West"
    },
    {
        "name": "National Certificate (Vocational): IT & Computer Science",
        "faculty": "N/A",
        "duration": "N/A",
        "location": "On Campus",
        "institution": "Vuselela College",
        "region": " North West"
    },
    {
        "name": "National Certificate (Vocational): Engineering & Related Design",
        "faculty": "N/A",
        "duration": "N/A",
        "location": "On Campus",
        "institution": "Vuselela College",
        "region": " North West"
    },
    {
        "name": "National Certificate (Vocational): Civil Engineering & Building  Construction",
        "faculty": "N/A",
        "duration": "N/A",
        "location": "On Campus",
        "institution": "Vuselela College",
        "region": " North West"
    },
    {
        "name": "National Certificate (Vocational): Hospitality",
        "faculty": "N/A",
        "duration": "N/A",
        "location": "On Campus",
        "institution": "Vuselela College",
        "region": " North West"
    },
    {
        "name": "National Certificate (Vocational): Office Administration",
        "faculty": "N/A",
        "duration": "N/A",
        "location": "On Campus",
        "institution": "Vuselela College",
        "region": " North West"
    },
    {
        "name": "National Certificate (Vocational): Primary Agriculture",
        "faculty": "N/A",
        "duration": "N/A",
        "location": "On Campus",
        "institution": "Vuselela College",
        "region": " North West"
    },
    {
        "name": "National Certificate (Vocational): Education and Development",
        "faculty": "N/A",
        "duration": "N/A",
        "location": "On Campus",
        "institution": "Vuselela College",
        "region": " North West"
    },
    {
        "name": "Report 191: Business Management",
        "faculty": "N/A",
        "duration": "N/A",
        "location": "On Campus",
        "institution": "Vuselela College",
        "region": " North West"
    },
    {
        "name": "Report 191: Human Resource Management",
        "faculty": "N/A",
        "duration": "N/A",
        "location": "On Campus",
        "institution": "Vuselela College",
        "region": " North West"
    },
    {
        "name": "Report 191: Management Assistant",
        "faculty": "N/A",
        "duration": "N/A",
        "location": "On Campus",
        "institution": "Vuselela College",
        "region": " North West"
    },
    {
        "name": "Report 191: Marketing Management",
        "faculty": "N/A",
        "duration": "N/A",
        "location": "On Campus",
        "institution": "Vuselela College",
        "region": " North West"
    },
    {
        "name": "Report 191: Tourism",
        "faculty": "N/A",
        "duration": "N/A",
        "location": "On Campus",
        "institution": "Vuselela College",
        "region": " North West"
    },
    {
        "name": "Report 191: Civil Engineering",
        "faculty": "N/A",
        "duration": "N/A",
        "location": "On Campus",
        "institution": "Vuselela College",
        "region": " North West"
    },
    {
        "name": "Report 191: Electrical Engineering",
        "faculty": "N/A",
        "duration": "N/A",
        "location": "On Campus",
        "institution": "Vuselela College",
        "region": " North West"
    },
    {
        "name": "Report 191: Mechanical Engineering",
        "faculty": "N/A",
        "duration": "N/A",
        "location": "On Campus",
        "institution": "Vuselela College",
        "region": " North West"
    },
    {
        "name": "Report 191: Public Management",
        "faculty": "N/A",
        "duration": "N/A",
        "location": "On Campus",
        "institution": "Vuselela College",
        "region": " North West"
    },
    {
        "name": "National N-Diploma (N4-N6): Educare",
        "faculty": "N/A",
        "duration": "N/A",
        "location": "On Campus",
        "institution": "Westcol College",
        "region": " North West"
    },
    {
        "name": "National N-Diploma (N4-N6): Hospitality X",
        "faculty": "N/A",
        "duration": "N/A",
        "location": "On Campus",
        "institution": "Westcol College",
        "region": " North West"
    },
    {
        "name": "National N-Diploma (N4-N6): Tourism X",
        "faculty": "N/A",
        "duration": "N/A",
        "location": "On Campus",
        "institution": "Westcol College",
        "region": " North West"
    },
    {
        "name": "National N-Diploma (N4-N6): Hairdressing",
        "faculty": "N/A",
        "duration": "N/A",
        "location": "On Campus",
        "institution": "Westcol College",
        "region": " North West"
    },
    {
        "name": "National Certificate (Vocational): Electrical Infrastructure (Level 2-4)",
        "faculty": "N/A",
        "duration": "N/A",
        "location": "On Campus",
        "institution": "Westcol College",
        "region": " North West"
    },
    {
        "name": "National Certificate (Vocational): Construction (Level 2-4)",
        "faculty": "N/A",
        "duration": "N/A",
        "location": "On Campus",
        "institution": "Westcol College",
        "region": " North West"
    },
    {
        "name": "National Certificate (Vocational): Engineering and Related Design (Level 2-4)",
        "faculty": "N/A",
        "duration": "N/A",
        "location": "On Campus",
        "institution": "Westcol College",
        "region": " North West"
    },
    {
        "name": "National Certificate (Vocational): Finance Economics and Accounting (Level 2-4)",
        "faculty": "N/A",
        "duration": "N/A",
        "location": "On Campus",
        "institution": "Westcol College",
        "region": " North West"
    },
    {
        "name": "National Certificate (Vocational): Hospitality (Level 2-4)",
        "faculty": "N/A",
        "duration": "N/A",
        "location": "On Campus",
        "institution": "Westcol College",
        "region": " North West"
    },
    {
        "name": "National Certificate (Vocational): Marketing (Level 2-4)",
        "faculty": "N/A",
        "duration": "N/A",
        "location": "On Campus",
        "institution": "Westcol College",
        "region": " North West"
    },
    {
        "name": "National Certificate (Vocational): Office Administration (Level 2-4)",
        "faculty": "N/A",
        "duration": "N/A",
        "location": "On Campus",
        "institution": "Westcol College",
        "region": " North West"
    },
    {
        "name": "National Certificate (Vocational): Tourism (Level 2-4)",
        "faculty": "N/A",
        "duration": "N/A",
        "location": "On Campus",
        "institution": "Westcol College",
        "region": " North West"
    },
    {
        "name": "National N-Diploma (N1-N6): PLP ",
        "faculty": "N/A",
        "duration": "N/A",
        "location": "On Campus",
        "institution": "Westcol College",
        "region": " North West"
    },
    {
        "name": "National N-Diploma (N1-N6): Engineering: N1 – N6 ",
        "faculty": "N/A",
        "duration": "N/A",
        "location": "On Campus",
        "institution": "Westcol College",
        "region": " North West"
    },
    {
        "name": "National N-Diploma (N1-N6): Electrical Installation Rules and Specialised Electrical Installation Rules",
        "faculty": "N/A",
        "duration": "N/A",
        "location": "On Campus",
        "institution": "Westcol College",
        "region": " North West"
    },
    {
        "name": "National N-Diploma (N1-N6): Certificate of Competency",
        "faculty": "N/A",
        "duration": "N/A",
        "location": "On Campus",
        "institution": "Westcol College",
        "region": " North West"
    },
    {
        "name": "National N-Diploma (N4-N6): Introduction to N4 ",
        "faculty": "N/A",
        "duration": "N/A",
        "location": "On Campus",
        "institution": "Westcol College",
        "region": " North West"
    },
    {
        "name": "National N-Diploma (N4-N6): Business Management ",
        "faculty": "N/A",
        "duration": "N/A",
        "location": "On Campus",
        "institution": "Westcol College",
        "region": " North West"
    },
    {
        "name": "National N-Diploma (N4-N6): Financial Management",
        "faculty": "N/A",
        "duration": "N/A",
        "location": "On Campus",
        "institution": "Westcol College",
        "region": " North West"
    },
    {
        "name": "National N-Diploma (N4-N6): Human Resources Management ",
        "faculty": "N/A",
        "duration": "N/A",
        "location": "On Campus",
        "institution": "Westcol College",
        "region": " North West"
    },
    {
        "name": "National N-Diploma (N4-N6): Legal Secretary ",
        "faculty": "N/A",
        "duration": "N/A",
        "location": "On Campus",
        "institution": "Westcol College",
        "region": " North West"
    },
    {
        "name": "National N-Diploma (N4-N6): Management Assistant ",
        "faculty": "N/A",
        "duration": "N/A",
        "location": "On Campus",
        "institution": "Westcol College",
        "region": " North West"
    },
    {
        "name": "National N-Diploma (N4-N6): Marketing Management ",
        "faculty": "N/A",
        "duration": "N/A",
        "location": "On Campus",
        "institution": "Westcol College",
        "region": " North West"
    },
    {
        "name": "National N-Diploma (N4-N6): Public Management ",
        "faculty": "N/A",
        "duration": "N/A",
        "location": "On Campus",
        "institution": "Westcol College",
        "region": " North West"
    },
    {
        "name": "National N-Diploma (N4-N6): Public Relations",
        "faculty": "N/A",
        "duration": "N/A",
        "location": "On Campus",
        "institution": "Westcol College",
        "region": " North West"
    }
]